{"type":"FeatureCollection","features":[{"type":"Feature","properties":{"Code":"G03","Name":"Addison Road","LineCode1":"BL","Address__City":"Capitol Heights","Address__State":"MD","Address__Street":"100 Addison Road S.","Address__Zip":20743,"LineCode2":"SV","LineCode3":"null","LineCode4":"null","StationTogether1":"","StationTogether2":"","StationID":92},"geometry":{"type":"Point","coordinates":[-76.89410791,38.88674782]}},{"type":"Feature","properties":{"Code":"F06","Name":"Anacostia","LineCode1":"GR","Address__City":"Washington","Address__State":"DC","Address__Street":"1101 Howard Road SE","Address__Zip":20020,"LineCode2":"null","LineCode3":"null","LineCode4":"null","StationTogether1":"","StationTogether2":"","StationID":85},"geometry":{"type":"Point","coordinates":[-76.99537074,38.86296312]}},{"type":"Feature","properties":{"Code":"F02","Name":"Archives","LineCode1":"GR","Address__City":"Washington","Address__State":"DC","Address__Street":"701 Pennsylvania Avenue NW","Address__Zip":20004,"LineCode2":"YL","LineCode3":"null","LineCode4":"null","StationTogether1":"","StationTogether2":"","StationID":81},"geometry":{"type":"Point","coordinates":[-77.02191439,38.89366522]}},{"type":"Feature","properties":{"Code":"C06","Name":"Arlington Cemetery","LineCode1":"BL","Address__City":"Arlington","Address__State":"VA","Address__Street":"1000 North Memorial Drive","Address__Zip":22211,"LineCode2":"null","LineCode3":"null","LineCode4":"null","StationTogether1":"","StationTogether2":"","StationID":42},"geometry":{"type":"Point","coordinates":[-77.06281013,38.88468686]}},{"type":"Feature","properties":{"Code":"K04","Name":"Ballston","LineCode1":"OR","Address__City":"Arlington","Address__State":"VA","Address__Street":"4230 Fairfax Drive","Address__Zip":22201,"LineCode2":"SV","LineCode3":"null","LineCode4":"null","StationTogether1":"","StationTogether2":"","StationID":99},"geometry":{"type":"Point","coordinates":[-77.11316884,38.88218287]}},{"type":"Feature","properties":{"Code":"G01","Name":"Benning Road","LineCode1":"BL","Address__City":"Washington","Address__State":"DC","Address__Street":"4500 Benning Road","Address__Zip":20019,"LineCode2":"SV","LineCode3":"null","LineCode4":"null","StationTogether1":"","StationTogether2":"","StationID":90},"geometry":{"type":"Point","coordinates":[-76.93836487,38.89097568]}},{"type":"Feature","properties":{"Code":"A09","Name":"Bethesda","LineCode1":"RD","Address__City":"Bethesda","Address__State":"MD","Address__Street":"7450 Wisconsin Avenue","Address__Zip":20814,"LineCode2":"null","LineCode3":"null","LineCode4":"null","StationTogether1":"","StationTogether2":"","StationID":12},"geometry":{"type":"Point","coordinates":[-77.09412919,38.98439366]}},{"type":"Feature","properties":{"Code":"C12","Name":"Braddock Road","LineCode1":"BL","Address__City":"Alexandria","Address__State":"VA","Address__Street":"700 N. West St.","Address__Zip":22301,"LineCode2":"YL","LineCode3":"null","LineCode4":"null","StationTogether1":"","StationTogether2":"","StationID":47},"geometry":{"type":"Point","coordinates":[-77.05366757,38.81414367]}},{"type":"Feature","properties":{"Code":"F11","Name":"Branch Avenue","LineCode1":"GR","Address__City":"Suitland","Address__State":"MD","Address__Street":"4704 Old Soper Road","Address__Zip":20746,"LineCode2":"null","LineCode3":"null","LineCode4":"null","StationTogether1":"","StationTogether2":"","StationID":89},"geometry":{"type":"Point","coordinates":[-76.91146422,38.82644635]}},{"type":"Feature","properties":{"Code":"B05","Name":"Brookland","LineCode1":"RD","Address__City":"Washington","Address__State":"DC","Address__Street":"801 Michigan Avenue NE","Address__Zip":20017,"LineCode2":"null","LineCode3":"null","LineCode4":"null","StationTogether1":"","StationTogether2":"","StationID":27},"geometry":{"type":"Point","coordinates":[-76.99453429,38.93321099]}},{"type":"Feature","properties":{"Code":"G02","Name":"Capitol Heights","LineCode1":"BL","Address__City":"Capitol Heights","Address__State":"MD","Address__Street":"133 Central Avenue","Address__Zip":20743,"LineCode2":"SV","LineCode3":"null","LineCode4":"null","StationTogether1":"","StationTogether2":"","StationID":91},"geometry":{"type":"Point","coordinates":[-76.91180811,38.88946586]}},{"type":"Feature","properties":{"Code":"D05","Name":"Capitol South","LineCode1":"BL","Address__City":"Washington","Address__State":"DC","Address__Street":"355 First Street SE","Address__Zip":20003,"LineCode2":"OR","LineCode3":"SV","LineCode4":"null","StationTogether1":"","StationTogether2":"","StationID":59},"geometry":{"type":"Point","coordinates":[-77.00513942,38.8850625]}},{"type":"Feature","properties":{"Code":"D11","Name":"Cheverly","LineCode1":"OR","Address__City":"Cheverly","Address__State":"MD","Address__Street":"5501 Columbia Park","Address__Zip":20785,"LineCode2":"null","LineCode3":"null","LineCode4":"null","StationTogether1":"","StationTogether2":"","StationID":66},"geometry":{"type":"Point","coordinates":[-76.91662804,38.91663185]}},{"type":"Feature","properties":{"Code":"K02","Name":"Clarendon","LineCode1":"OR","Address__City":"Arlington","Address__State":"VA","Address__Street":"3100 Wilson Blvd","Address__Zip":22201,"LineCode2":"SV","LineCode3":"null","LineCode4":"null","StationTogether1":"","StationTogether2":"","StationID":97},"geometry":{"type":"Point","coordinates":[-77.0953941,38.88670484]}},{"type":"Feature","properties":{"Code":"A05","Name":"Cleveland Park","LineCode1":"RD","Address__City":"Washington","Address__State":"DC","Address__Street":"3599 Connecticut Avenue NW","Address__Zip":20008,"LineCode2":"null","LineCode3":"null","LineCode4":"null","StationTogether1":"","StationTogether2":"","StationID":8},"geometry":{"type":"Point","coordinates":[-77.05804252,38.93476289]}},{"type":"Feature","properties":{"Code":"E09","Name":"College Park","LineCode1":"GR","Address__City":"College Park","Address__State":"MD","Address__Street":"4931 Calvert Road","Address__Zip":20740,"LineCode2":"null","LineCode3":"null","LineCode4":"null","StationTogether1":"","StationTogether2":"","StationID":79},"geometry":{"type":"Point","coordinates":[-76.92812498,38.97863363]}},{"type":"Feature","properties":{"Code":"E04","Name":"Columbia Heights","LineCode1":"GR","Address__City":"Washington","Address__State":"DC","Address__Street":"3030 14th St. NW","Address__Zip":20009,"LineCode2":"YL","LineCode3":"null","LineCode4":"null","StationTogether1":"","StationTogether2":"","StationID":75},"geometry":{"type":"Point","coordinates":[-77.03255212,38.92783797]}},{"type":"Feature","properties":{"Code":"F07","Name":"Congress Height","LineCode1":"GR","Address__City":"Washington","Address__State":"DC","Address__Street":"1290 Alabama Avenue SE","Address__Zip":20020,"LineCode2":"null","LineCode3":"null","LineCode4":"null","StationTogether1":"","StationTogether2":"","StationID":86},"geometry":{"type":"Point","coordinates":[-76.98851193,38.8456577]}},{"type":"Feature","properties":{"Code":"K01","Name":"Court House","LineCode1":"OR","Address__City":"Arlington","Address__State":"VA","Address__Street":"2100 Wilson Blvd","Address__Zip":22201,"LineCode2":"SV","LineCode3":"null","LineCode4":"null","StationTogether1":"","StationTogether2":"","StationID":96},"geometry":{"type":"Point","coordinates":[-77.08713123,38.89017553]}},{"type":"Feature","properties":{"Code":"C09","Name":"Crystal City","LineCode1":"BL","Address__City":"Arlington","Address__State":"VA","Address__Street":"1750 South Clark St.","Address__Zip":22202,"LineCode2":"YL","LineCode3":"null","LineCode4":"null","StationTogether1":"","StationTogether2":"","StationID":45},"geometry":{"type":"Point","coordinates":[-77.05028981,38.85790432]}},{"type":"Feature","properties":{"Code":"D10","Name":"Deanwood","LineCode1":"OR","Address__City":"Washington","Address__State":"DC","Address__Street":"4720 Minnesota Avenue NE","Address__Zip":20019,"LineCode2":"null","LineCode3":"null","LineCode4":"null","StationTogether1":"","StationTogether2":"","StationID":65},"geometry":{"type":"Point","coordinates":[-76.93525678,38.9081785]}},{"type":"Feature","properties":{"Code":"K07","Name":"Dunn Loring","LineCode1":"OR","Address__City":"Vienna","Address__State":"VA","Address__Street":"2700 Gallows Road","Address__Zip":22180,"LineCode2":"null","LineCode3":"null","LineCode4":"null","StationTogether1":"","StationTogether2":"","StationID":102},"geometry":{"type":"Point","coordinates":[-77.22716067,38.88362514]}},{"type":"Feature","properties":{"Code":"A03","Name":"Dupont Circle","LineCode1":"RD","Address__City":"Washington","Address__State":"DC","Address__Street":"1525 20th St. NW","Address__Zip":20036,"LineCode2":"null","LineCode3":"null","LineCode4":"null","StationTogether1":"","StationTogether2":"","StationID":6},"geometry":{"type":"Point","coordinates":[-77.04341436,38.90959806]}},{"type":"Feature","properties":{"Code":"K05","Name":"E Falls Church","LineCode1":"OR","Address__City":"Arlington","Address__State":"VA","Address__Street":"2001 N. Sycamore St.","Address__Zip":22205,"LineCode2":"SV","LineCode3":"null","LineCode4":"null","StationTogether1":"","StationTogether2":"","StationID":100},"geometry":{"type":"Point","coordinates":[-77.15688302,38.88595317]}},{"type":"Feature","properties":{"Code":"D06","Name":"Eastern Market","LineCode1":"BL","Address__City":"Washington","Address__State":"DC","Address__Street":"701 Pennsylvania Avenue SE","Address__Zip":20003,"LineCode2":"OR","LineCode3":"SV","LineCode4":"null","StationTogether1":"","StationTogether2":"","StationID":60},"geometry":{"type":"Point","coordinates":[-76.99600113,38.88462226]}},{"type":"Feature","properties":{"Code":"C14","Name":"Eisenhower Avenue","LineCode1":"YL","Address__City":"Alexandria","Address__State":"VA","Address__Street":"2400 Eisenhower Avenue","Address__Zip":22314,"LineCode2":"null","LineCode3":"null","LineCode4":"null","StationTogether1":"","StationTogether2":"","StationID":49},"geometry":{"type":"Point","coordinates":[-77.07087439,38.80042545]}},{"type":"Feature","properties":{"Code":"A02","Name":"Farragut North","LineCode1":"RD","Address__City":"Washington","Address__State":"DC","Address__Street":"1001 Connecticut Avenue NW","Address__Zip":20036,"LineCode2":"null","LineCode3":"null","LineCode4":"null","StationTogether1":"","StationTogether2":"","StationID":4},"geometry":{"type":"Point","coordinates":[-77.03970083,38.90320195]}},{"type":"Feature","properties":{"Code":"C03","Name":"Farragut West","LineCode1":"BL","Address__City":"Washington","Address__State":"DC","Address__Street":"900 18th St. NW","Address__Zip":20006,"LineCode2":"OR","LineCode3":"SV","LineCode4":"null","StationTogether1":"","StationTogether2":"","StationID":38},"geometry":{"type":"Point","coordinates":[-77.04069542,38.90131289]}},{"type":"Feature","properties":{"Code":"D04","Name":"Federal Center SW","LineCode1":"BL","Address__City":"Washington","Address__State":"DC","Address__Street":"401 3rd Street SW","Address__Zip":20024,"LineCode2":"OR","LineCode3":"SV","LineCode4":"null","StationTogether1":"","StationTogether2":"","StationID":58},"geometry":{"type":"Point","coordinates":[-77.01586822,38.88507236]}},{"type":"Feature","properties":{"Code":"D01","Name":"Federal Triangle","LineCode1":"BL","Address__City":"Washington","Address__State":"DC","Address__Street":"302 12th St. NW","Address__Zip":20004,"LineCode2":"OR","LineCode3":"SV","LineCode4":"null","StationTogether1":"","StationTogether2":"","StationID":53},"geometry":{"type":"Point","coordinates":[-77.028132,38.89318087]}},{"type":"Feature","properties":{"Code":"C04","Name":"Foggy Bottom","LineCode1":"BL","Address__City":"Washington","Address__State":"DC","Address__Street":"2301 I St. NW","Address__Zip":20037,"LineCode2":"OR","LineCode3":"SV","LineCode4":"null","StationTogether1":"","StationTogether2":"","StationID":40},"geometry":{"type":"Point","coordinates":[-77.05027774,38.90069801]}},{"type":"Feature","properties":{"Code":"B09","Name":"Forest Glen","LineCode1":"RD","Address__City":"Forest Glen","Address__State":"MD","Address__Street":"9730 Georgia Avenue","Address__Zip":20910,"LineCode2":"null","LineCode3":"null","LineCode4":"null","StationTogether1":"","StationTogether2":"","StationID":32},"geometry":{"type":"Point","coordinates":[-77.04291655,39.01495428]}},{"type":"Feature","properties":{"Code":"E06","Name":"Fort Totten","LineCode1":"GR","Address__City":"Washington","Address__State":"DC","Address__Street":"550 Galloway Street NE","Address__Zip":20011,"LineCode2":"YL","LineCode3":"null","LineCode4":"null","StationTogether1":"B06","StationTogether2":"","StationID":28},"geometry":{"type":"Point","coordinates":[-77.00220308,38.95184677]}},{"type":"Feature","properties":{"Code":"B06","Name":"Fort Totten","LineCode1":"RD","Address__City":"Washington","Address__State":"DC","Address__Street":"550 Galloway Street NE","Address__Zip":20011,"LineCode2":"null","LineCode3":"null","LineCode4":"null","StationTogether1":"E06","StationTogether2":"","StationID":28},"geometry":{"type":"Point","coordinates":[-77.00220308,38.95184677]}},{"type":"Feature","properties":{"Code":"J03","Name":"Franconia-Springf'ld","LineCode1":"BL","Address__City":"Springfield","Address__State":"VA","Address__Street":"6880 Frontier Drive","Address__Zip":22150,"LineCode2":"null","LineCode3":"null","LineCode4":"null","StationTogether1":"","StationTogether2":"","StationID":95},"geometry":{"type":"Point","coordinates":[-77.16797018,38.76652189]}},{"type":"Feature","properties":{"Code":"A08","Name":"Friendship Heights","LineCode1":"RD","Address__City":"Washington","Address__State":"DC","Address__Street":"5337 Wisconsin Avenue NW","Address__Zip":20015,"LineCode2":"null","LineCode3":"null","LineCode4":"null","StationTogether1":"","StationTogether2":"","StationID":11},"geometry":{"type":"Point","coordinates":[-77.08499581,38.95948387]}},{"type":"Feature","properties":{"Code":"F01","Name":"Gallery Place","LineCode1":"GR","Address__City":"Washington","Address__State":"DC","Address__Street":"630 H St. NW","Address__Zip":20001,"LineCode2":"YL","LineCode3":"null","LineCode4":"null","StationTogether1":"B01","StationTogether2":"","StationID":21},"geometry":{"type":"Point","coordinates":[-77.02191539,38.89831681]}},{"type":"Feature","properties":{"Code":"B01","Name":"Gallery Place","LineCode1":"RD","Address__City":"Washington","Address__State":"DC","Address__Street":"630 H St. NW","Address__Zip":20001,"LineCode2":"null","LineCode3":"null","LineCode4":"null","StationTogether1":"F01","StationTogether2":"","StationID":21},"geometry":{"type":"Point","coordinates":[-77.02191539,38.89831681]}},{"type":"Feature","properties":{"Code":"E05","Name":"Georgia Avenue","LineCode1":"GR","Address__City":"Washington","Address__State":"DC","Address__Street":"3700 Georgia Avenue NW","Address__Zip":20010,"LineCode2":"YL","LineCode3":"null","LineCode4":"null","StationTogether1":"","StationTogether2":"","StationID":76},"geometry":{"type":"Point","coordinates":[-77.0234609,38.93743463]}},{"type":"Feature","properties":{"Code":"B11","Name":"Glenmont","LineCode1":"RD","Address__City":"Silver Spring","Address__State":"MD","Address__Street":"12501 Georgia Avenue","Address__Zip":20906,"LineCode2":"null","LineCode3":"null","LineCode4":"null","StationTogether1":"","StationTogether2":"","StationID":34},"geometry":{"type":"Point","coordinates":[-77.05355736,39.06178377]}},{"type":"Feature","properties":{"Code":"E10","Name":"Greenbelt","LineCode1":"GR","Address__City":"Greenbelt","Address__State":"MD","Address__Street":"5717 Greenbelt Metro Drive","Address__Zip":20740,"LineCode2":"null","LineCode3":"null","LineCode4":"null","StationTogether1":"","StationTogether2":"","StationID":80},"geometry":{"type":"Point","coordinates":[-76.91105757,39.01114586]}},{"type":"Feature","properties":{"Code":"N03","Name":"Greensboro","LineCode1":"SV","Address__City":"Vienna","Address__State":"VA","Address__Street":"8305 Leesburg Pike","Address__Zip":22182,"LineCode2":"null","LineCode3":"null","LineCode4":"null","StationTogether1":"","StationTogether2":"","StationID":113},"geometry":{"type":"Point","coordinates":[-77.234607,38.921732]}},{"type":"Feature","properties":{"Code":"A11","Name":"Grosvenor","LineCode1":"RD","Address__City":"Bethesda","Address__State":"MD","Address__Street":"10300 Rockville Pike","Address__Zip":20852,"LineCode2":"null","LineCode3":"null","LineCode4":"null","StationTogether1":"","StationTogether2":"","StationID":14},"geometry":{"type":"Point","coordinates":[-77.10384972,39.02926895]}},{"type":"Feature","properties":{"Code":"C15","Name":"Huntington","LineCode1":"YL","Address__City":"Huntington","Address__State":"VA","Address__Street":"2501 Huntington Ave","Address__Zip":22303,"LineCode2":"null","LineCode3":"null","LineCode4":"null","StationTogether1":"","StationTogether2":"","StationID":50},"geometry":{"type":"Point","coordinates":[-77.07520579,38.79391585]}},{"type":"Feature","properties":{"Code":"B02","Name":"Judiciary Square","LineCode1":"RD","Address__City":"Washington","Address__State":"DC","Address__Street":"450 F Street NW","Address__Zip":20001,"LineCode2":"null","LineCode3":"null","LineCode4":"null","StationTogether1":"","StationTogether2":"","StationID":23},"geometry":{"type":"Point","coordinates":[-77.01663896,38.89609032]}},{"type":"Feature","properties":{"Code":"C13","Name":"King Street","LineCode1":"BL","Address__City":"Alexandria","Address__State":"VA","Address__Street":"1900 King Street","Address__Zip":22301,"LineCode2":"YL","LineCode3":"null","LineCode4":"null","StationTogether1":"","StationTogether2":"","StationID":48},"geometry":{"type":"Point","coordinates":[-77.06081121,38.80658612]}},{"type":"Feature","properties":{"Code":"D03","Name":"L'Enfant Plaza","LineCode1":"BL","Address__City":"Washington","Address__State":"DC","Address__Street":"600 Maryland Avenue SW","Address__Zip":20024,"LineCode2":"OR","LineCode3":"SV","LineCode4":"null","StationTogether1":"F03","StationTogether2":"","StationID":82},"geometry":{"type":"Point","coordinates":[-77.02190848,38.88483773]}},{"type":"Feature","properties":{"Code":"F03","Name":"L'Enfant Plaza","LineCode1":"GR","Address__City":"Washington","Address__State":"DC","Address__Street":"600 Maryland Avenue SW","Address__Zip":20024,"LineCode2":"YL","LineCode3":"null","LineCode4":"null","StationTogether1":"D03","StationTogether2":"","StationID":82},"geometry":{"type":"Point","coordinates":[-77.02190848,38.88483773]}},{"type":"Feature","properties":{"Code":"D12","Name":"Landover","LineCode1":"OR","Address__City":"Hyattsville","Address__State":"MD","Address__Street":"3000 Pennsy Drive","Address__Zip":20785,"LineCode2":"null","LineCode3":"null","LineCode4":"null","StationTogether1":"","StationTogether2":"","StationID":67},"geometry":{"type":"Point","coordinates":[-76.89119797,38.93350623]}},{"type":"Feature","properties":{"Code":"G05","Name":"Largo Town Center","LineCode1":"BL","Address__City":"Largo","Address__State":"MD","Address__Street":"Largo Town Center 9000 Lottsford Road","Address__Zip":20774,"LineCode2":"SV","LineCode3":"null","LineCode4":"null","StationTogether1":"","StationTogether2":"","StationID":109},"geometry":{"type":"Point","coordinates":[-76.84203752,38.90506881]}},{"type":"Feature","properties":{"Code":"N01","Name":"McLean","LineCode1":"SV","Address__City":"McLean","Address__State":"VA","Address__Street":"1824 Dolley Madison Boulevard","Address__Zip":22102,"LineCode2":"null","LineCode3":"null","LineCode4":"null","StationTogether1":"","StationTogether2":"","StationID":111},"geometry":{"type":"Point","coordinates":[-77.210295,38.924432]}},{"type":"Feature","properties":{"Code":"C02","Name":"McPherson Square","LineCode1":"BL","Address__City":"Washington","Address__State":"DC","Address__Street":"1400 I St. NW","Address__Zip":20005,"LineCode2":"OR","LineCode3":"SV","LineCode4":"null","StationTogether1":"","StationTogether2":"","StationID":36},"geometry":{"type":"Point","coordinates":[-77.03363417,38.9013328]}},{"type":"Feature","properties":{"Code":"A10","Name":"Medical Center","LineCode1":"RD","Address__City":"Bethesda","Address__State":"MD","Address__Street":"8810 Rockville Pike","Address__Zip":20814,"LineCode2":"null","LineCode3":"null","LineCode4":"null","StationTogether1":"","StationTogether2":"","StationID":13},"geometry":{"type":"Point","coordinates":[-77.09695229,39.00005648]}},{"type":"Feature","properties":{"Code":"C01","Name":"Metro Center","LineCode1":"BL","Address__City":"Washington","Address__State":"DC","Address__Street":"607 13th St. NW","Address__Zip":20005,"LineCode2":"OR","LineCode3":"SV","LineCode4":"null","StationTogether1":"A01","StationTogether2":"","StationID":1},"geometry":{"type":"Point","coordinates":[-77.028078,38.89831447]}},{"type":"Feature","properties":{"Code":"A01","Name":"Metro Center","LineCode1":"RD","Address__City":"Washington","Address__State":"DC","Address__Street":"607 13th St. NW","Address__Zip":20005,"LineCode2":"null","LineCode3":"null","LineCode4":"null","StationTogether1":"C01","StationTogether2":"","StationID":1},"geometry":{"type":"Point","coordinates":[-77.028078,38.89831447]}},{"type":"Feature","properties":{"Code":"D09","Name":"Minnesota Avenue","LineCode1":"OR","Address__City":"Washington","Address__State":"DC","Address__Street":"4000 Minnesota Avenue NE","Address__Zip":20019,"LineCode2":"null","LineCode3":"null","LineCode4":"null","StationTogether1":"","StationTogether2":"","StationID":64},"geometry":{"type":"Point","coordinates":[-76.94674773,38.89919122]}},{"type":"Feature","properties":{"Code":"G04","Name":"Morgan Blvd","LineCode1":"BL","Address__City":"Landover","Address__State":"MD","Address__Street":"300 Garrett Morgan Blvd.","Address__Zip":20785,"LineCode2":"SV","LineCode3":"null","LineCode4":"null","StationTogether1":"","StationTogether2":"","StationID":110},"geometry":{"type":"Point","coordinates":[-76.86807477,38.89383493]}},{"type":"Feature","properties":{"Code":"E01","Name":"Mt Vernon Sq","LineCode1":"GR","Address__City":"Washington","Address__State":"DC","Address__Street":"700 M St. NW","Address__Zip":20001,"LineCode2":"YL","LineCode3":"null","LineCode4":"null","StationTogether1":"","StationTogether2":"","StationID":70},"geometry":{"type":"Point","coordinates":[-77.02191438,38.90643681]}},{"type":"Feature","properties":{"Code":"C10","Name":"National Arpt","LineCode1":"BL","Address__City":"Arlington","Address__State":"VA","Address__Street":"2400 S. Smith Blvd.","Address__Zip":22202,"LineCode2":"YL","LineCode3":"null","LineCode4":"null","StationTogether1":"","StationTogether2":"","StationID":93},"geometry":{"type":"Point","coordinates":[-77.04404229,38.85341639]}},{"type":"Feature","properties":{"Code":"F05","Name":"Navy Yard","LineCode1":"GR","Address__City":"Washington","Address__State":"DC","Address__Street":"200 M Street SE","Address__Zip":20003,"LineCode2":"null","LineCode3":"null","LineCode4":"null","StationTogether1":"","StationTogether2":"","StationID":84},"geometry":{"type":"Point","coordinates":[-77.00508565,38.87648108]}},{"type":"Feature","properties":{"Code":"F09","Name":"Naylor Road","LineCode1":"GR","Address__City":"Temple Hills","Address__State":"MD","Address__Street":"3101 Branch Avenue","Address__Zip":20748,"LineCode2":"null","LineCode3":"null","LineCode4":"null","StationTogether1":"","StationTogether2":"","StationID":87},"geometry":{"type":"Point","coordinates":[-76.95626271,38.85130138]}},{"type":"Feature","properties":{"Code":"D13","Name":"New Carrollton","LineCode1":"OR","Address__City":"New Carrollton","Address__State":"MD","Address__Street":"4700 Garden City Drive","Address__Zip":20784,"LineCode2":"null","LineCode3":"null","LineCode4":"null","StationTogether1":"","StationTogether2":"","StationID":68},"geometry":{"type":"Point","coordinates":[-76.87184129,38.94778486]}},{"type":"Feature","properties":{"Code":"B35","Name":"New York Avenue","LineCode1":"RD","Address__City":"Washington","Address__State":"DC","Address__Street":"200 Florida Ave N.E.","Address__Zip":20002,"LineCode2":"null","LineCode3":"null","LineCode4":"null","StationTogether1":"","StationTogether2":"","StationID":108},"geometry":{"type":"Point","coordinates":[-77.00302045,38.90701621]}},{"type":"Feature","properties":{"Code":"C07","Name":"Pentagon","LineCode1":"BL","Address__City":"Arlington","Address__State":"VA","Address__Street":"2 South Rotary Road","Address__Zip":22202,"LineCode2":"YL","LineCode3":"null","LineCode4":"null","StationTogether1":"","StationTogether2":"","StationID":43},"geometry":{"type":"Point","coordinates":[-77.05371567,38.8694627]}},{"type":"Feature","properties":{"Code":"C08","Name":"Pentagon City","LineCode1":"BL","Address__City":"Arlington","Address__State":"VA","Address__Street":"1250 South Hayes St.","Address__Zip":22202,"LineCode2":"YL","LineCode3":"null","LineCode4":"null","StationTogether1":"","StationTogether2":"","StationID":44},"geometry":{"type":"Point","coordinates":[-77.05953892,38.86188239]}},{"type":"Feature","properties":{"Code":"D07","Name":"Potomac Avenue","LineCode1":"BL","Address__City":"Washington","Address__State":"DC","Address__Street":"700 14th Street SE","Address__Zip":20003,"LineCode2":"OR","LineCode3":"SV","LineCode4":"null","StationTogether1":"","StationTogether2":"","StationID":61},"geometry":{"type":"Point","coordinates":[-76.98549532,38.88126327]}},{"type":"Feature","properties":{"Code":"E08","Name":"Prince Georges Plaza","LineCode1":"GR","Address__City":"Hyattsville","Address__State":"MD","Address__Street":"3575 East West Highway","Address__Zip":20782,"LineCode2":"null","LineCode3":"null","LineCode4":"null","StationTogether1":"","StationTogether2":"","StationID":78},"geometry":{"type":"Point","coordinates":[-76.95588151,38.96538545]}},{"type":"Feature","properties":{"Code":"B04","Name":"Rhode Island Avenue","LineCode1":"RD","Address__City":"Washington","Address__State":"DC","Address__Street":"919 Rhode Island Avenue NE","Address__Zip":20018,"LineCode2":"null","LineCode3":"null","LineCode4":"null","StationTogether1":"","StationTogether2":"","StationID":26},"geometry":{"type":"Point","coordinates":[-76.99593692,38.92105969]}},{"type":"Feature","properties":{"Code":"A14","Name":"Rockville","LineCode1":"RD","Address__City":"Rockville","Address__State":"MD","Address__Street":"251 Hungerford Drive","Address__Zip":20850,"LineCode2":"null","LineCode3":"null","LineCode4":"null","StationTogether1":"","StationTogether2":"","StationID":17},"geometry":{"type":"Point","coordinates":[-77.14612534,39.08432161]}},{"type":"Feature","properties":{"Code":"C05","Name":"Rosslyn","LineCode1":"BL","Address__City":"Arlington","Address__State":"VA","Address__Street":"1850 N. Moore Street","Address__Zip":22209,"LineCode2":"OR","LineCode3":"SV","LineCode4":"null","StationTogether1":"","StationTogether2":"","StationID":41},"geometry":{"type":"Point","coordinates":[-77.07090869,38.8959791]}},{"type":"Feature","properties":{"Code":"A15","Name":"Shady Grove","LineCode1":"RD","Address__City":"Rockville","Address__State":"MD","Address__Street":"15903 Somerville Drive","Address__Zip":20855,"LineCode2":"null","LineCode3":"null","LineCode4":"null","StationTogether1":"","StationTogether2":"","StationID":18},"geometry":{"type":"Point","coordinates":[-77.16462733,39.11992732]}},{"type":"Feature","properties":{"Code":"E02","Name":"Shaw","LineCode1":"GR","Address__City":"Washington","Address__State":"DC","Address__Street":"1701 8th St. NW","Address__Zip":20001,"LineCode2":"YL","LineCode3":"null","LineCode4":"null","StationTogether1":"","StationTogether2":"","StationID":72},"geometry":{"type":"Point","coordinates":[-77.0219117,38.91347687]}},{"type":"Feature","properties":{"Code":"B08","Name":"Silver Spring","LineCode1":"RD","Address__City":"Silver Spring","Address__State":"MD","Address__Street":"8400 Colesville Road","Address__Zip":20910,"LineCode2":"null","LineCode3":"null","LineCode4":"null","StationTogether1":"","StationTogether2":"","StationID":31},"geometry":{"type":"Point","coordinates":[-77.03101783,38.99394937]}},{"type":"Feature","properties":{"Code":"D02","Name":"Smithsonian","LineCode1":"BL","Address__City":"Washington","Address__State":"DC","Address__Street":"1200 Independence Avenue SW","Address__Zip":20004,"LineCode2":"OR","LineCode3":"SV","LineCode4":"null","StationTogether1":"","StationTogether2":"","StationID":54},"geometry":{"type":"Point","coordinates":[-77.02806623,38.8880187]}},{"type":"Feature","properties":{"Code":"F08","Name":"Southern Ave","LineCode1":"GR","Address__City":"Temple Hills","Address__State":"MD","Address__Street":"1411 Southern Avenue","Address__Zip":20748,"LineCode2":"null","LineCode3":"null","LineCode4":"null","StationTogether1":"","StationTogether2":"","StationID":107},"geometry":{"type":"Point","coordinates":[-76.97505414,38.84108578]}},{"type":"Feature","properties":{"Code":"N04","Name":"Spring Hill","LineCode1":"SV","Address__City":"Vienna","Address__State":"VA","Address__Street":"1576 Spring Hill Road","Address__Zip":22182,"LineCode2":"null","LineCode3":"null","LineCode4":"null","StationTogether1":"","StationTogether2":"","StationID":114},"geometry":{"type":"Point","coordinates":[-77.241472,38.928872]}},{"type":"Feature","properties":{"Code":"D08","Name":"Stadium Armory","LineCode1":"BL","Address__City":"Washington","Address__State":"DC","Address__Street":"192 19th St. SE","Address__Zip":20003,"LineCode2":"OR","LineCode3":"SV","LineCode4":"null","StationTogether1":"","StationTogether2":"","StationID":63},"geometry":{"type":"Point","coordinates":[-76.9770889,38.88670909]}},{"type":"Feature","properties":{"Code":"F10","Name":"Suitland","LineCode1":"GR","Address__City":"Suitland","Address__State":"MD","Address__Street":"4500 Silver Hill Road","Address__Zip":20746,"LineCode2":"null","LineCode3":"null","LineCode4":"null","StationTogether1":"","StationTogether2":"","StationID":88},"geometry":{"type":"Point","coordinates":[-76.93187016,38.84396455]}},{"type":"Feature","properties":{"Code":"B07","Name":"Takoma","LineCode1":"RD","Address__City":"Washington","Address__State":"DC","Address__Street":"327 Cedar Street NW","Address__Zip":20012,"LineCode2":"null","LineCode3":"null","LineCode4":"null","StationTogether1":"","StationTogether2":"","StationID":29},"geometry":{"type":"Point","coordinates":[-77.0181767,38.97607853]}},{"type":"Feature","properties":{"Code":"A07","Name":"Tenleytown","LineCode1":"RD","Address__City":"Washington","Address__State":"DC","Address__Street":"4501 Wisconsin Avenue NW","Address__Zip":20016,"LineCode2":"null","LineCode3":"null","LineCode4":"null","StationTogether1":"","StationTogether2":"","StationID":10},"geometry":{"type":"Point","coordinates":[-77.07958733,38.94885144]}},{"type":"Feature","properties":{"Code":"A13","Name":"Twinbrook","LineCode1":"RD","Address__City":"Rockville","Address__State":"MD","Address__Street":"1600 Chapman Avenue","Address__Zip":20852,"LineCode2":"null","LineCode3":"null","LineCode4":"null","StationTogether1":"","StationTogether2":"","StationID":16},"geometry":{"type":"Point","coordinates":[-77.12081795,39.06246765]}},{"type":"Feature","properties":{"Code":"N02","Name":"Tysons Corner","LineCode1":"SV","Address__City":"McLean","Address__State":"VA","Address__Street":"1943 Chain Bridge Road","Address__Zip":22102,"LineCode2":"null","LineCode3":"null","LineCode4":"null","StationTogether1":"","StationTogether2":"","StationID":112},"geometry":{"type":"Point","coordinates":[-77.222262,38.920496]}},{"type":"Feature","properties":{"Code":"E03","Name":"U Street","LineCode1":"GR","Address__City":"Washington","Address__State":"DC","Address__Street":"1240 U Street NW","Address__Zip":20009,"LineCode2":"YL","LineCode3":"null","LineCode4":"null","StationTogether1":"","StationTogether2":"","StationID":73},"geometry":{"type":"Point","coordinates":[-77.02749589,38.9170024]}},{"type":"Feature","properties":{"Code":"B03","Name":"Union Station","LineCode1":"RD","Address__City":"Washington","Address__State":"DC","Address__Street":"701 First St. NE","Address__Zip":20002,"LineCode2":"null","LineCode3":"null","LineCode4":"null","StationTogether1":"","StationTogether2":"","StationID":25},"geometry":{"type":"Point","coordinates":[-77.00741429,38.89776604]}},{"type":"Feature","properties":{"Code":"J02","Name":"Van Dorn St","LineCode1":"BL","Address__City":"Alexandria","Address__State":"VA","Address__Street":"5690 Eisenhower Avenue","Address__Zip":22310,"LineCode2":"null","LineCode3":"null","LineCode4":"null","StationTogether1":"","StationTogether2":"","StationID":94},"geometry":{"type":"Point","coordinates":[-77.12911152,38.79930767]}},{"type":"Feature","properties":{"Code":"A06","Name":"Van Ness UDC","LineCode1":"RD","Address__City":"Washington","Address__State":"DC","Address__Street":"4200 Connecticut Avenue NW","Address__Zip":20008,"LineCode2":"null","LineCode3":"null","LineCode4":"null","StationTogether1":"","StationTogether2":"","StationID":9},"geometry":{"type":"Point","coordinates":[-77.06298618,38.94326529]}},{"type":"Feature","properties":{"Code":"K08","Name":"Vienna","LineCode1":"OR","Address__City":"Fairfax","Address__State":"VA","Address__Street":"9550 Saintsbury Drive","Address__Zip":22031,"LineCode2":"null","LineCode3":"null","LineCode4":"null","StationTogether1":"","StationTogether2":"","StationID":103},"geometry":{"type":"Point","coordinates":[-77.27262226,38.87760112]}},{"type":"Feature","properties":{"Code":"K03","Name":"Virginia Square","LineCode1":"OR","Address__City":"Arlington","Address__State":"VA","Address__Street":"3600 Fairfax Drive","Address__Zip":22201,"LineCode2":"SV","LineCode3":"null","LineCode4":"null","StationTogether1":"","StationTogether2":"","StationID":98},"geometry":{"type":"Point","coordinates":[-77.10297729,38.88336615]}},{"type":"Feature","properties":{"Code":"K06","Name":"W Falls Church","LineCode1":"OR","Address__City":"Falls Church","Address__State":"VA","Address__Street":"7040 Haycock Road","Address__Zip":22043,"LineCode2":"null","LineCode3":"null","LineCode4":"null","StationTogether1":"","StationTogether2":"","StationID":101},"geometry":{"type":"Point","coordinates":[-77.18909482,38.90078055]}},{"type":"Feature","properties":{"Code":"F04","Name":"Waterfront","LineCode1":"GR","Address__City":"Washington","Address__State":"DC","Address__Street":"399 M Street SW","Address__Zip":20024,"LineCode2":"null","LineCode3":"null","LineCode4":"null","StationTogether1":"","StationTogether2":"","StationID":83},"geometry":{"type":"Point","coordinates":[-77.01750521,38.87646187]}},{"type":"Feature","properties":{"Code":"E07","Name":"West Hyattsville","LineCode1":"GR","Address__City":"Hyattsville","Address__State":"MD","Address__Street":"2700 Hamilton St.","Address__Zip":20782,"LineCode2":"null","LineCode3":"null","LineCode4":"null","StationTogether1":"","StationTogether2":"","StationID":77},"geometry":{"type":"Point","coordinates":[-76.96957668,38.95504017]}},{"type":"Feature","properties":{"Code":"B10","Name":"Wheaton","LineCode1":"RD","Address__City":"Silver Spring","Address__State":"MD","Address__Street":"11171 Georgia Avenue","Address__Zip":20902,"LineCode2":"null","LineCode3":"null","LineCode4":"null","StationTogether1":"","StationTogether2":"","StationID":33},"geometry":{"type":"Point","coordinates":[-77.05010705,39.03752714]}},{"type":"Feature","properties":{"Code":"A12","Name":"White Flint","LineCode1":"RD","Address__City":"Rockville","Address__State":"MD","Address__Street":"5500 Marinelli Road","Address__Zip":20852,"LineCode2":"null","LineCode3":"null","LineCode4":"null","StationTogether1":"","StationTogether2":"","StationID":15},"geometry":{"type":"Point","coordinates":[-77.11282986,39.04815136]}},{"type":"Feature","properties":{"Code":"N06","Name":"Wiehle-Reston East","LineCode1":"SV","Address__City":"Reston","Address__State":"VA","Address__Street":"1862 Wiehle Avenue","Address__Zip":20190,"LineCode2":"null","LineCode3":"null","LineCode4":"null","StationTogether1":"","StationTogether2":"","StationID":115},"geometry":{"type":"Point","coordinates":[-77.34027,38.94778]}},{"type":"Feature","properties":{"Code":"A04","Name":"Woodley Park Zoo","LineCode1":"RD","Address__City":"Washington","Address__State":"DC","Address__Street":"2700 Connecticut Ave., NW","Address__Zip":20008,"LineCode2":"null","LineCode3":"null","LineCode4":"null","StationTogether1":"","StationTogether2":"","StationID":7},"geometry":{"type":"Point","coordinates":[-77.05241802,38.92508514]}}]}